$GPGGA,134641.931,4851.422,N,00217.215,E,1,12,1.0,0.0,M,0.0,M,,*6E
$GPGSA,A,3,01,02,03,04,05,06,07,08,09,10,11,12,1.0,1.0,1.0*30
$GPRMC,134641.931,A,4851.422,N,00217.215,E,019.4,052.7,050120,000.0,W*70
$GPGGA,134651.931,4851.463,N,00217.269,E,1,12,1.0,0.0,M,0.0,M,,*61
$GPGSA,A,3,01,02,03,04,05,06,07,08,09,10,11,12,1.0,1.0,1.0*30
$GPRMC,134651.931,A,4851.463,N,00217.269,E,019.4,052.7,050120,000.0,W*7F
$GPGGA,134701.931,4851.504,N,00217.322,E,1,12,1.0,0.0,M,0.0,M,,*6B
$GPGSA,A,3,01,02,03,04,05,06,07,08,09,10,11,12,1.0,1.0,1.0*30
$GPRMC,134701.931,A,4851.504,N,00217.322,E,019.4,052.7,050120,000.0,W*75
$GPGGA,134711.931,4851.544,N,00217.376,E,1,12,1.0,0.0,M,0.0,M,,*6F
$GPGSA,A,3,01,02,03,04,05,06,07,08,09,10,11,12,1.0,1.0,1.0*30
$GPRMC,134711.931,A,4851.544,N,00217.376,E,019.4,052.7,050120,000.0,W*71
$GPGGA,134721.931,4851.585,N,00217.430,E,1,12,1.0,0.0,M,0.0,M,,*64
$GPGSA,A,3,01,02,03,04,05,06,07,08,09,10,11,12,1.0,1.0,1.0*30
$GPRMC,134721.931,A,4851.585,N,00217.430,E,019.4,052.7,050120,000.0,W*7A
$GPGGA,134731.931,4851.626,N,00217.483,E,1,12,1.0,0.0,M,0.0,M,,*67
$GPGSA,A,3,01,02,03,04,05,06,07,08,09,10,11,12,1.0,1.0,1.0*30
$GPRMC,134731.931,A,4851.626,N,00217.483,E,019.4,052.7,050120,000.0,W*79
$GPGGA,134741.931,4851.667,N,00217.537,E,1,12,1.0,0.0,M,0.0,M,,*6B
$GPGSA,A,3,01,02,03,04,05,06,07,08,09,10,11,12,1.0,1.0,1.0*30
$GPRMC,134741.931,A,4851.667,N,00217.537,E,019.4,052.7,050120,000.0,W*75
$GPGGA,134751.931,4851.708,N,00217.591,E,1,12,1.0,0.0,M,0.0,M,,*6E
$GPGSA,A,3,01,02,03,04,05,06,07,08,09,10,11,12,1.0,1.0,1.0*30
$GPRMC,134751.931,A,4851.708,N,00217.591,E,019.4,073.4,050120,000.0,W*70
$GPGGA,134801.931,4851.730,N,00217.666,E,1,12,1.0,0.0,M,0.0,M,,*64
$GPGSA,A,3,01,02,03,04,05,06,07,08,09,10,11,12,1.0,1.0,1.0*30
$GPRMC,134801.931,A,4851.730,N,00217.666,E,019.4,073.4,050120,000.0,W*7A
$GPGGA,134811.931,4851.752,N,00217.740,E,1,12,1.0,0.0,M,0.0,M,,*64
$GPGSA,A,3,01,02,03,04,05,06,07,08,09,10,11,12,1.0,1.0,1.0*30
$GPRMC,134811.931,A,4851.752,N,00217.740,E,019.4,073.4,050120,000.0,W*7A
$GPGGA,134821.931,4851.774,N,00217.815,E,1,12,1.0,0.0,M,0.0,M,,*6C
$GPGSA,A,3,01,02,03,04,05,06,07,08,09,10,11,12,1.0,1.0,1.0*30
$GPRMC,134821.931,A,4851.774,N,00217.815,E,019.4,075.6,050120,000.0,W*76
$GPGGA,134831.931,4851.794,N,00217.892,E,1,12,1.0,0.0,M,0.0,M,,*6C
$GPGSA,A,3,01,02,03,04,05,06,07,08,09,10,11,12,1.0,1.0,1.0*30
$GPRMC,134831.931,A,4851.794,N,00217.892,E,019.4,075.6,050120,000.0,W*76
$GPGGA,134841.931,4851.813,N,00217.968,E,1,12,1.0,0.0,M,0.0,M,,*6F
$GPGSA,A,3,01,02,03,04,05,06,07,08,09,10,11,12,1.0,1.0,1.0*30
$GPRMC,134841.931,A,4851.813,N,00217.968,E,019.4,075.6,050120,000.0,W*75
$GPGGA,134851.931,4851.833,N,00218.045,E,1,12,1.0,0.0,M,0.0,M,,*65
$GPGSA,A,3,01,02,03,04,05,06,07,08,09,10,11,12,1.0,1.0,1.0*30
$GPRMC,134851.931,A,4851.833,N,00218.045,E,019.4,086.1,050120,000.0,W*74
$GPGGA,134901.931,4851.838,N,00218.126,E,1,12,1.0,0.0,M,0.0,M,,*6E
$GPGSA,A,3,01,02,03,04,05,06,07,08,09,10,11,12,1.0,1.0,1.0*30
$GPRMC,134901.931,A,4851.838,N,00218.126,E,019.4,086.1,050120,000.0,W*7F
$GPGGA,134911.931,4851.844,N,00218.208,E,1,12,1.0,0.0,M,0.0,M,,*6B
$GPGSA,A,3,01,02,03,04,05,06,07,08,09,10,11,12,1.0,1.0,1.0*30
$GPRMC,134911.931,A,4851.844,N,00218.208,E,019.4,086.1,050120,000.0,W*7A
$GPGGA,134921.931,4851.849,N,00218.289,E,1,12,1.0,0.0,M,0.0,M,,*6C
$GPGSA,A,3,01,02,03,04,05,06,07,08,09,10,11,12,1.0,1.0,1.0*30
$GPRMC,134921.931,A,4851.849,N,00218.289,E,019.4,086.1,050120,000.0,W*7D
$GPGGA,134931.931,4851.855,N,00218.371,E,1,12,1.0,0.0,M,0.0,M,,*66
$GPGSA,A,3,01,02,03,04,05,06,07,08,09,10,11,12,1.0,1.0,1.0*30
$GPRMC,134931.931,A,4851.855,N,00218.371,E,019.4,086.4,050120,000.0,W*72
$GPGGA,134941.931,4851.860,N,00218.453,E,1,12,1.0,0.0,M,0.0,M,,*60
$GPGSA,A,3,01,02,03,04,05,06,07,08,09,10,11,12,1.0,1.0,1.0*30
$GPRMC,134941.931,A,4851.860,N,00218.453,E,019.4,086.4,050120,000.0,W*74
$GPGGA,134951.931,4851.865,N,00218.534,E,1,12,1.0,0.0,M,0.0,M,,*64
$GPGSA,A,3,01,02,03,04,05,06,07,08,09,10,11,12,1.0,1.0,1.0*30
$GPRMC,134951.931,A,4851.865,N,00218.534,E,019.4,086.4,050120,000.0,W*70
$GPGGA,135001.931,4851.870,N,00218.616,E,1,12,1.0,0.0,M,0.0,M,,*6E
$GPGSA,A,3,01,02,03,04,05,06,07,08,09,10,11,12,1.0,1.0,1.0*30
$GPRMC,135001.931,A,4851.870,N,00218.616,E,019.4,087.4,050120,000.0,W*7B
$GPGGA,135011.931,4851.874,N,00218.698,E,1,12,1.0,0.0,M,0.0,M,,*6D
$GPGSA,A,3,01,02,03,04,05,06,07,08,09,10,11,12,1.0,1.0,1.0*30
$GPRMC,135011.931,A,4851.874,N,00218.698,E,019.4,087.4,050120,000.0,W*78
$GPGGA,135021.931,4851.877,N,00218.780,E,1,12,1.0,0.0,M,0.0,M,,*65
$GPGSA,A,3,01,02,03,04,05,06,07,08,09,10,11,12,1.0,1.0,1.0*30
$GPRMC,135021.931,A,4851.877,N,00218.780,E,019.4,165.6,050120,000.0,W*7F
$GPGGA,135031.931,4851.824,N,00218.793,E,1,12,1.0,0.0,M,0.0,M,,*60
$GPGSA,A,3,01,02,03,04,05,06,07,08,09,10,11,12,1.0,1.0,1.0*30
$GPRMC,135031.931,A,4851.824,N,00218.793,E,019.4,168.6,050120,000.0,W*77
$GPGGA,135041.931,4851.771,N,00218.804,E,1,12,1.0,0.0,M,0.0,M,,*69
$GPGSA,A,3,01,02,03,04,05,06,07,08,09,10,11,12,1.0,1.0,1.0*30
$GPRMC,135041.931,A,4851.771,N,00218.804,E,019.4,262.8,050120,000.0,W*79
$GPGGA,135051.931,4851.761,N,00218.724,E,1,12,1.0,0.0,M,0.0,M,,*64
$GPGSA,A,3,01,02,03,04,05,06,07,08,09,10,11,12,1.0,1.0,1.0*30
$GPRMC,135051.931,A,4851.761,N,00218.724,E,019.4,262.8,050120,000.0,W*74
$GPGGA,135101.931,4851.751,N,00218.643,E,1,12,1.0,0.0,M,0.0,M,,*63
$GPGSA,A,3,01,02,03,04,05,06,07,08,09,10,11,12,1.0,1.0,1.0*30
$GPRMC,135101.931,A,4851.751,N,00218.643,E,019.4,268.0,050120,000.0,W*71
$GPGGA,135111.931,4851.748,N,00218.561,E,1,12,1.0,0.0,M,0.0,M,,*69
$GPGSA,A,3,01,02,03,04,05,06,07,08,09,10,11,12,1.0,1.0,1.0*30
$GPRMC,135111.931,A,4851.748,N,00218.561,E,019.4,268.0,050120,000.0,W*7B
$GPGGA,135121.931,4851.745,N,00218.479,E,1,12,1.0,0.0,M,0.0,M,,*6F
$GPGSA,A,3,01,02,03,04,05,06,07,08,09,10,11,12,1.0,1.0,1.0*30
$GPRMC,135121.931,A,4851.745,N,00218.479,E,019.4,268.0,050120,000.0,W*7D
$GPGGA,135131.931,4851.742,N,00218.397,E,1,12,1.0,0.0,M,0.0,M,,*6E
$GPGSA,A,3,01,02,03,04,05,06,07,08,09,10,11,12,1.0,1.0,1.0*30
$GPRMC,135131.931,A,4851.742,N,00218.397,E,019.4,268.0,050120,000.0,W*7C
$GPGGA,135141.931,4851.739,N,00218.315,E,1,12,1.0,0.0,M,0.0,M,,*6F
$GPGSA,A,3,01,02,03,04,05,06,07,08,09,10,11,12,1.0,1.0,1.0*30
$GPRMC,135141.931,A,4851.739,N,00218.315,E,019.4,268.0,050120,000.0,W*7D
$GPGGA,135151.931,4851.737,N,00218.234,E,1,12,1.0,0.0,M,0.0,M,,*62
$GPGSA,A,3,01,02,03,04,05,06,07,08,09,10,11,12,1.0,1.0,1.0*30
$GPRMC,135151.931,A,4851.737,N,00218.234,E,019.4,268.0,050120,000.0,W*70
$GPGGA,135201.931,4851.734,N,00218.152,E,1,12,1.0,0.0,M,0.0,M,,*64
$GPGSA,A,3,01,02,03,04,05,06,07,08,09,10,11,12,1.0,1.0,1.0*30
$GPRMC,135201.931,A,4851.734,N,00218.152,E,019.4,207.6,050120,000.0,W*79
$GPGGA,135211.931,4851.683,N,00218.125,E,1,12,1.0,0.0,M,0.0,M,,*68
$GPGSA,A,3,01,02,03,04,05,06,07,08,09,10,11,12,1.0,1.0,1.0*30
$GPRMC,135211.931,A,4851.683,N,00218.125,E,019.4,207.6,050120,000.0,W*75
$GPGGA,135221.931,4851.632,N,00218.098,E,1,12,1.0,0.0,M,0.0,M,,*66
$GPGSA,A,3,01,02,03,04,05,06,07,08,09,10,11,12,1.0,1.0,1.0*30
$GPRMC,135221.931,A,4851.632,N,00218.098,E,019.4,207.6,050120,000.0,W*7B
$GPGGA,135231.931,4851.581,N,00218.071,E,1,12,1.0,0.0,M,0.0,M,,*6B
$GPGSA,A,3,01,02,03,04,05,06,07,08,09,10,11,12,1.0,1.0,1.0*30
$GPRMC,135231.931,A,4851.581,N,00218.071,E,019.4,207.6,050120,000.0,W*76
$GPGGA,135241.931,4851.530,N,00218.045,E,1,12,1.0,0.0,M,0.0,M,,*61
$GPGSA,A,3,01,02,03,04,05,06,07,08,09,10,11,12,1.0,1.0,1.0*30
$GPRMC,135241.931,A,4851.530,N,00218.045,E,019.4,207.6,050120,000.0,W*7C
$GPGGA,135251.931,4851.479,N,00218.018,E,1,12,1.0,0.0,M,0.0,M,,*64
$GPGSA,A,3,01,02,03,04,05,06,07,08,09,10,11,12,1.0,1.0,1.0*30
$GPRMC,135251.931,A,4851.479,N,00218.018,E,019.4,237.6,050120,000.0,W*7A
$GPGGA,135301.931,4851.441,N,00217.959,E,1,12,1.0,0.0,M,0.0,M,,*68
$GPGSA,A,3,01,02,03,04,05,06,07,08,09,10,11,12,1.0,1.0,1.0*30
$GPRMC,135301.931,A,4851.441,N,00217.959,E,019.4,237.6,050120,000.0,W*76
$GPGGA,135311.931,4851.404,N,00217.900,E,1,12,1.0,0.0,M,0.0,M,,*64
$GPGSA,A,3,01,02,03,04,05,06,07,08,09,10,11,12,1.0,1.0,1.0*30
$GPRMC,135311.931,A,4851.404,N,00217.900,E,019.4,232.9,050120,000.0,W*70
$GPGGA,135321.931,4851.363,N,00217.846,E,1,12,1.0,0.0,M,0.0,M,,*62
$GPGSA,A,3,01,02,03,04,05,06,07,08,09,10,11,12,1.0,1.0,1.0*30
$GPRMC,135321.931,A,4851.363,N,00217.846,E,019.4,232.9,050120,000.0,W*76
$GPGGA,135331.931,4851.323,N,00217.792,E,1,12,1.0,0.0,M,0.0,M,,*61
$GPGSA,A,3,01,02,03,04,05,06,07,08,09,10,11,12,1.0,1.0,1.0*30
$GPRMC,135331.931,A,4851.323,N,00217.792,E,019.4,232.9,050120,000.0,W*75
$GPGGA,135341.931,4851.282,N,00217.738,E,1,12,1.0,0.0,M,0.0,M,,*6C
$GPGSA,A,3,01,02,03,04,05,06,07,08,09,10,11,12,1.0,1.0,1.0*30
$GPRMC,135341.931,A,4851.282,N,00217.738,E,019.4,234.8,050120,000.0,W*7F
$GPGGA,135351.931,4851.243,N,00217.682,E,1,12,1.0,0.0,M,0.0,M,,*60
$GPGSA,A,3,01,02,03,04,05,06,07,08,09,10,11,12,1.0,1.0,1.0*30
$GPRMC,135351.931,A,4851.243,N,00217.682,E,019.4,234.8,050120,000.0,W*73
$GPGGA,135401.931,4851.203,N,00217.626,E,1,12,1.0,0.0,M,0.0,M,,*68
$GPGSA,A,3,01,02,03,04,05,06,07,08,09,10,11,12,1.0,1.0,1.0*30
$GPRMC,135401.931,A,4851.203,N,00217.626,E,019.4,234.8,050120,000.0,W*7B
$GPGGA,135411.931,4851.164,N,00217.570,E,1,12,1.0,0.0,M,0.0,M,,*6B
$GPGSA,A,3,01,02,03,04,05,06,07,08,09,10,11,12,1.0,1.0,1.0*30
$GPRMC,135411.931,A,4851.164,N,00217.570,E,019.4,234.8,050120,000.0,W*78
$GPGGA,135421.931,4851.125,N,00217.514,E,1,12,1.0,0.0,M,0.0,M,,*6F
$GPGSA,A,3,01,02,03,04,05,06,07,08,09,10,11,12,1.0,1.0,1.0*30
$GPRMC,135421.931,A,4851.125,N,00217.514,E,019.4,312.4,050120,000.0,W*75
$GPGGA,135431.931,4851.168,N,00217.466,E,1,12,1.0,0.0,M,0.0,M,,*63
$GPGSA,A,3,01,02,03,04,05,06,07,08,09,10,11,12,1.0,1.0,1.0*30
$GPRMC,135431.931,A,4851.168,N,00217.466,E,019.4,312.4,050120,000.0,W*79
$GPGGA,135441.931,4851.212,N,00217.418,E,1,12,1.0,0.0,M,0.0,M,,*63
$GPGSA,A,3,01,02,03,04,05,06,07,08,09,10,11,12,1.0,1.0,1.0*30
$GPRMC,135441.931,A,4851.212,N,00217.418,E,019.4,312.4,050120,000.0,W*79
$GPGGA,135451.931,4851.256,N,00217.370,E,1,12,1.0,0.0,M,0.0,M,,*6B
$GPGSA,A,3,01,02,03,04,05,06,07,08,09,10,11,12,1.0,1.0,1.0*30
$GPRMC,135451.931,A,4851.256,N,00217.370,E,019.4,312.4,050120,000.0,W*71
$GPGGA,135501.931,4851.299,N,00217.322,E,1,12,1.0,0.0,M,0.0,M,,*6B
$GPGSA,A,3,01,02,03,04,05,06,07,08,09,10,11,12,1.0,1.0,1.0*30
$GPRMC,135501.931,A,4851.299,N,00217.322,E,019.4,312.4,050120,000.0,W*71
$GPGGA,135511.931,4851.343,N,00217.274,E,1,12,1.0,0.0,M,0.0,M,,*6E
$GPGSA,A,3,01,02,03,04,05,06,07,08,09,10,11,12,1.0,1.0,1.0*30
$GPRMC,135511.931,A,4851.343,N,00217.274,E,019.4,312.4,050120,000.0,W*74
$GPGGA,135521.931,4851.387,N,00217.226,E,1,12,1.0,0.0,M,0.0,M,,*62
$GPGSA,A,3,01,02,03,04,05,06,07,08,09,10,11,12,1.0,1.0,1.0*30
$GPRMC,135521.931,A,4851.387,N,00217.226,E,019.4,312.4,050120,000.0,W*78
