$GPGGA,134641.931,4851.878,N,00218.629,E,1,12,1.0,0.0,M,0.0,M,,*69
$GPGSA,A,3,01,02,03,04,05,06,07,08,09,10,11,12,1.0,1.0,1.0*30
$GPRMC,134641.931,A,4851.878,N,00218.629,E,103.7,180.0,050120,000.0,W*77
$GPGGA,134642.931,4851.849,N,00218.629,E,1,12,1.0,0.0,M,0.0,M,,*68
$GPGSA,A,3,01,02,03,04,05,06,07,08,09,10,11,12,1.0,1.0,1.0*30
$GPRMC,134642.931,A,4851.849,N,00218.629,E,116.6,170.9,050120,000.0,W*75
$GPGGA,134643.931,4851.817,N,00218.634,E,1,12,1.0,0.0,M,0.0,M,,*6E
$GPGSA,A,3,01,02,03,04,05,06,07,08,09,10,11,12,1.0,1.0,1.0*30
$GPRMC,134643.931,A,4851.817,N,00218.634,E,201.4,180.0,050120,000.0,W*72
$GPGGA,134644.931,4851.761,N,00218.634,E,1,12,1.0,0.0,M,0.0,M,,*67
$GPGSA,A,3,01,02,03,04,05,06,07,08,09,10,11,12,1.0,1.0,1.0*30
$GPRMC,134644.931,A,4851.761,N,00218.634,E,065.7,255.2,050120,000.0,W*71
$GPGGA,134645.931,4851.754,N,00218.608,E,1,12,1.0,0.0,M,0.0,M,,*6F
$GPGSA,A,3,01,02,03,04,05,06,07,08,09,10,11,12,1.0,1.0,1.0*30
$GPRMC,134645.931,A,4851.754,N,00218.608,E,097.6,270.0,050120,000.0,W*70
$GPGGA,134646.931,4851.754,N,00218.567,E,1,12,1.0,0.0,M,0.0,M,,*66
$GPGSA,A,3,01,02,03,04,05,06,07,08,09,10,11,12,1.0,1.0,1.0*30
$GPRMC,134646.931,A,4851.754,N,00218.567,E,177.1,268.7,050120,000.0,W*7F
$GPGGA,134647.931,4851.752,N,00218.492,E,1,12,1.0,0.0,M,0.0,M,,*6A
$GPGSA,A,3,01,02,03,04,05,06,07,08,09,10,11,12,1.0,1.0,1.0*30
$GPRMC,134647.931,A,4851.752,N,00218.492,E,116.1,272.0,050120,000.0,W*78
$GPGGA,134648.931,4851.754,N,00218.443,E,1,12,1.0,0.0,M,0.0,M,,*6F
$GPGSA,A,3,01,02,03,04,05,06,07,08,09,10,11,12,1.0,1.0,1.0*30
$GPRMC,134648.931,A,4851.754,N,00218.443,E,103.9,267.8,050120,000.0,W*7D
$GPGGA,134649.931,4851.752,N,00218.399,E,1,12,1.0,0.0,M,0.0,M,,*68
$GPGSA,A,3,01,02,03,04,05,06,07,08,09,10,11,12,1.0,1.0,1.0*30
$GPRMC,134649.931,A,4851.752,N,00218.399,E,134.3,270.0,050120,000.0,W*7A
$GPGGA,134650.931,4851.752,N,00218.343,E,1,12,1.0,0.0,M,0.0,M,,*67
$GPGSA,A,3,01,02,03,04,05,06,07,08,09,10,11,12,1.0,1.0,1.0*30
$GPRMC,134650.931,A,4851.752,N,00218.343,E,110.0,267.9,050120,000.0,W*7F
$GPGGA,134651.931,4851.751,N,00218.296,E,1,12,1.0,0.0,M,0.0,M,,*6C
$GPGSA,A,3,01,02,03,04,05,06,07,08,09,10,11,12,1.0,1.0,1.0*30
$GPRMC,134651.931,A,4851.751,N,00218.296,E,062.2,277.5,050120,000.0,W*7F
$GPGGA,134652.931,4851.754,N,00218.271,E,1,12,1.0,0.0,M,0.0,M,,*63
$GPGSA,A,3,01,02,03,04,05,06,07,08,09,10,11,12,1.0,1.0,1.0*30
$GPRMC,134652.931,A,4851.754,N,00218.271,E,152.7,268.5,050120,000.0,W*79
$GPGGA,134653.931,4851.752,N,00218.206,E,1,12,1.0,0.0,M,0.0,M,,*64
$GPGSA,A,3,01,02,03,04,05,06,07,08,09,10,11,12,1.0,1.0,1.0*30
$GPRMC,134653.931,A,4851.752,N,00218.206,E,091.7,267.5,050120,000.0,W*7F
$GPGGA,134654.931,4851.751,N,00218.168,E,1,12,1.0,0.0,M,0.0,M,,*6B
$GPGSA,A,3,01,02,03,04,05,06,07,08,09,10,11,12,1.0,1.0,1.0*30
$GPRMC,134654.931,A,4851.751,N,00218.168,E,122.7,266.2,050120,000.0,W*7F
$GPGGA,134655.931,4851.747,N,00218.116,E,1,12,1.0,0.0,M,0.0,M,,*64
$GPGSA,A,3,01,02,03,04,05,06,07,08,09,10,11,12,1.0,1.0,1.0*30
$GPRMC,134655.931,A,4851.747,N,00218.116,E,067.1,270.0,050120,000.0,W*73
$GPGGA,134656.931,4851.747,N,00218.088,E,1,12,1.0,0.0,M,0.0,M,,*61
$GPGSA,A,3,01,02,03,04,05,06,07,08,09,10,11,12,1.0,1.0,1.0*30
$GPRMC,134656.931,A,4851.747,N,00218.088,E,176.1,260.6,050120,000.0,W*70
$GPGGA,134657.931,4851.736,N,00218.016,E,1,12,1.0,0.0,M,0.0,M,,*61
$GPGSA,A,3,01,02,03,04,05,06,07,08,09,10,11,12,1.0,1.0,1.0*30
$GPRMC,134657.931,A,4851.736,N,00218.016,E,185.3,258.4,050120,000.0,W*77
$GPGGA,134658.931,4851.720,N,00217.941,E,1,12,1.0,0.0,M,0.0,M,,*6D
$GPGSA,A,3,01,02,03,04,05,06,07,08,09,10,11,12,1.0,1.0,1.0*30
$GPRMC,134658.931,A,4851.720,N,00217.941,E,136.5,251.7,050120,000.0,W*7F
$GPGGA,134659.931,4851.703,N,00217.890,E,1,12,1.0,0.0,M,0.0,M,,*60
$GPGSA,A,3,01,02,03,04,05,06,07,08,09,10,11,12,1.0,1.0,1.0*30
$GPRMC,134659.931,A,4851.703,N,00217.890,E,087.4,261.9,050120,000.0,W*75
$GPGGA,134700.931,4851.698,N,00217.854,E,1,12,1.0,0.0,M,0.0,M,,*66
$GPGSA,A,3,01,02,03,04,05,06,07,08,09,10,11,12,1.0,1.0,1.0*30
$GPRMC,134700.931,A,4851.698,N,00217.854,E,112.0,249.6,050120,000.0,W*7F
$GPGGA,134701.931,4851.683,N,00217.812,E,1,12,1.0,0.0,M,0.0,M,,*6F
$GPGSA,A,3,01,02,03,04,05,06,07,08,09,10,11,12,1.0,1.0,1.0*30
$GPRMC,134701.931,A,4851.683,N,00217.812,E,078.2,242.2,050120,000.0,W*76
$GPGGA,134702.931,4851.669,N,00217.787,E,1,12,1.0,0.0,M,0.0,M,,*6B
$GPGSA,A,3,01,02,03,04,05,06,07,08,09,10,11,12,1.0,1.0,1.0*30
$GPRMC,134702.931,A,4851.669,N,00217.787,E,094.9,236.6,050120,000.0,W*7C
$GPGGA,134703.931,4851.651,N,00217.758,E,1,12,1.0,0.0,M,0.0,M,,*63
$GPGSA,A,3,01,02,03,04,05,06,07,08,09,10,11,12,1.0,1.0,1.0*30
$GPRMC,134703.931,A,4851.651,N,00217.758,E,084.8,221.5,050120,000.0,W*71
$GPGGA,134704.931,4851.630,N,00217.740,E,1,12,1.0,0.0,M,0.0,M,,*6A
$GPGSA,A,3,01,02,03,04,05,06,07,08,09,10,11,12,1.0,1.0,1.0*30
$GPRMC,134704.931,A,4851.630,N,00217.740,E,155.6,126.4,050120,000.0,W*7E
$GPGGA,134705.931,4851.598,N,00217.784,E,1,12,1.0,0.0,M,0.0,M,,*62
$GPGSA,A,3,01,02,03,04,05,06,07,08,09,10,11,12,1.0,1.0,1.0*30
$GPRMC,134705.931,A,4851.598,N,00217.784,E,117.2,117.8,050120,000.0,W*7A
$GPGGA,134706.931,4851.578,N,00217.823,E,1,12,1.0,0.0,M,0.0,M,,*6D
$GPGSA,A,3,01,02,03,04,05,06,07,08,09,10,11,12,1.0,1.0,1.0*30
$GPRMC,134706.931,A,4851.578,N,00217.823,E,057.6,136.6,050120,000.0,W*79
$GPGGA,134707.931,4851.564,N,00217.836,E,1,12,1.0,0.0,M,0.0,M,,*65
$GPGSA,A,3,01,02,03,04,05,06,07,08,09,10,11,12,1.0,1.0,1.0*30
$GPRMC,134707.931,A,4851.564,N,00217.836,E,035.6,137.7,050120,000.0,W*75
$GPGGA,134708.931,4851.556,N,00217.843,E,1,12,1.0,0.0,M,0.0,M,,*69
$GPGSA,A,3,01,02,03,04,05,06,07,08,09,10,11,12,1.0,1.0,1.0*30
$GPRMC,134708.931,A,4851.556,N,00217.843,E,060.1,213.9,050120,000.0,W*75
$GPGGA,134709.931,4851.541,N,00217.833,E,1,12,1.0,0.0,M,0.0,M,,*69
$GPGSA,A,3,01,02,03,04,05,06,07,08,09,10,11,12,1.0,1.0,1.0*30
$GPRMC,134709.931,A,4851.541,N,00217.833,E,043.2,236.6,050120,000.0,W*7F
$GPGGA,134710.931,4851.532,N,00217.820,E,1,12,1.0,0.0,M,0.0,M,,*67
$GPGSA,A,3,01,02,03,04,05,06,07,08,09,10,11,12,1.0,1.0,1.0*30
$GPRMC,134710.931,A,4851.532,N,00217.820,E,052.5,244.7,050120,000.0,W*72
$GPGGA,134711.931,4851.524,N,00217.802,E,1,12,1.0,0.0,M,0.0,M,,*61
$GPGSA,A,3,01,02,03,04,05,06,07,08,09,10,11,12,1.0,1.0,1.0*30
$GPRMC,134711.931,A,4851.524,N,00217.802,E,103.9,240.8,050120,000.0,W*76
$GPGGA,134712.931,4851.505,N,00217.769,E,1,12,1.0,0.0,M,0.0,M,,*63
$GPGSA,A,3,01,02,03,04,05,06,07,08,09,10,11,12,1.0,1.0,1.0*30
$GPRMC,134712.931,A,4851.505,N,00217.769,E,106.6,213.5,050120,000.0,W*75
$GPGGA,134713.931,4851.478,N,00217.751,E,1,12,1.0,0.0,M,0.0,M,,*62
$GPGSA,A,3,01,02,03,04,05,06,07,08,09,10,11,12,1.0,1.0,1.0*30
$GPRMC,134713.931,A,4851.478,N,00217.751,E,087.4,253.0,050120,000.0,W*7F
$GPGGA,134714.931,4851.468,N,00217.717,E,1,12,1.0,0.0,M,0.0,M,,*66
$GPGSA,A,3,01,02,03,04,05,06,07,08,09,10,11,12,1.0,1.0,1.0*30
$GPRMC,134714.931,A,4851.468,N,00217.717,E,103.9,232.0,050120,000.0,W*7C
$GPGGA,134715.931,4851.446,N,00217.689,E,1,12,1.0,0.0,M,0.0,M,,*6D
$GPGSA,A,3,01,02,03,04,05,06,07,08,09,10,11,12,1.0,1.0,1.0*30
$GPRMC,134715.931,A,4851.446,N,00217.689,E,052.5,244.7,050120,000.0,W*78
$GPGGA,134716.931,4851.437,N,00217.671,E,1,12,1.0,0.0,M,0.0,M,,*6F
$GPGSA,A,3,01,02,03,04,05,06,07,08,09,10,11,12,1.0,1.0,1.0*30
$GPRMC,134716.931,A,4851.437,N,00217.671,E,232.4,254.2,050120,000.0,W*7B
$GPGGA,134717.931,4851.412,N,00217.581,E,1,12,1.0,0.0,M,0.0,M,,*65
$GPGSA,A,3,01,02,03,04,05,06,07,08,09,10,11,12,1.0,1.0,1.0*30
$GPRMC,134717.931,A,4851.412,N,00217.581,E,127.0,133.1,050120,000.0,W*73
$GPGGA,134718.931,4851.383,N,00217.611,E,1,12,1.0,0.0,M,0.0,M,,*6F
$GPGSA,A,3,01,02,03,04,05,06,07,08,09,10,11,12,1.0,1.0,1.0*30
$GPRMC,134718.931,A,4851.383,N,00217.611,E,040.9,251.7,050120,000.0,W*71
$GPGGA,134719.931,4851.378,N,00217.596,E,1,12,1.0,0.0,M,0.0,M,,*66
$GPGSA,A,3,01,02,03,04,05,06,07,08,09,10,11,12,1.0,1.0,1.0*30
$GPRMC,134719.931,A,4851.378,N,00217.596,E,170.0,149.8,050120,000.0,W*76
$GPGGA,134720.931,4851.334,N,00217.622,E,1,12,1.0,0.0,M,0.0,M,,*68
$GPGSA,A,3,01,02,03,04,05,06,07,08,09,10,11,12,1.0,1.0,1.0*30
$GPRMC,134720.931,A,4851.334,N,00217.622,E,103.6,123.4,050120,000.0,W*7A
$GPGGA,134721.931,4851.314,N,00217.653,E,1,12,1.0,0.0,M,0.0,M,,*6D
$GPGSA,A,3,01,02,03,04,05,06,07,08,09,10,11,12,1.0,1.0,1.0*30
$GPRMC,134721.931,A,4851.314,N,00217.653,E,071.2,111.6,050120,000.0,W*7C
$GPGGA,134722.931,4851.304,N,00217.678,E,1,12,1.0,0.0,M,0.0,M,,*66
$GPGSA,A,3,01,02,03,04,05,06,07,08,09,10,11,12,1.0,1.0,1.0*30
$GPRMC,134722.931,A,4851.304,N,00217.678,E,086.7,118.4,050120,000.0,W*71
$GPGGA,134723.931,4851.288,N,00217.707,E,1,12,1.0,0.0,M,0.0,M,,*6B
$GPGSA,A,3,01,02,03,04,05,06,07,08,09,10,11,12,1.0,1.0,1.0*30
$GPRMC,134723.931,A,4851.288,N,00217.707,E,124.5,163.2,050120,000.0,W*7D
$GPGGA,134724.931,4851.254,N,00217.717,E,1,12,1.0,0.0,M,0.0,M,,*6C
$GPGSA,A,3,01,02,03,04,05,06,07,08,09,10,11,12,1.0,1.0,1.0*30
$GPRMC,134724.931,A,4851.254,N,00217.717,E,643.2,235.5,050120,000.0,W*7C
$GPGGA,134725.931,4851.126,N,00217.529,E,1,12,1.0,0.0,M,0.0,M,,*64
$GPGSA,A,3,01,02,03,04,05,06,07,08,09,10,11,12,1.0,1.0,1.0*30
$GPRMC,134725.931,A,4851.126,N,00217.529,E,103.9,240.8,050120,000.0,W*73
$GPGGA,134726.931,4851.107,N,00217.496,E,1,12,1.0,0.0,M,0.0,M,,*61
$GPGSA,A,3,01,02,03,04,05,06,07,08,09,10,11,12,1.0,1.0,1.0*30
$GPRMC,134726.931,A,4851.107,N,00217.496,E,138.4,306.8,050120,000.0,W*70
$GPGGA,134727.931,4851.136,N,00217.457,E,1,12,1.0,0.0,M,0.0,M,,*6F
$GPGSA,A,3,01,02,03,04,05,06,07,08,09,10,11,12,1.0,1.0,1.0*30
$GPRMC,134727.931,A,4851.136,N,00217.457,E,1144.5,315.9,050120,000.0,W*46
$GPGGA,134728.931,4851.403,N,00217.197,E,1,12,1.0,0.0,M,0.0,M,,*6A
$GPGSA,A,3,01,02,03,04,05,06,07,08,09,10,11,12,1.0,1.0,1.0*30
$GPRMC,134728.931,A,4851.403,N,00217.197,E,972.2,050.7,050120,000.0,W*74
$GPGGA,134729.931,4851.614,N,00217.454,E,1,12,1.0,0.0,M,0.0,M,,*65
$GPGSA,A,3,01,02,03,04,05,06,07,08,09,10,11,12,1.0,1.0,1.0*30
$GPRMC,134729.931,A,4851.614,N,00217.454,E,972.2,050.7,050120,000.0,W*7B
